{
"type": "FeatureCollection",
"name": "ccha_geom_centroid",
"crs": { "type": "name", "properties": { "name": "urn:ogc:def:crs:OGC:1.3:CRS84" } },
"features": [
{ "type": "Feature", "properties": { "id": 1, "nom": "Luzenac" }, "geometry": { "type": "Point", "coordinates": [ 1.736675305521341, 42.718600397084217 ] } },
{ "type": "Feature", "properties": { "id": 2, "nom": "Albiès " }, "geometry": { "type": "Point", "coordinates": [ 1.699258757201636, 42.754250776724859 ] } },
{ "type": "Feature", "properties": { "id": 3, "nom": "Appy " }, "geometry": { "type": "Point", "coordinates": [ 1.740520698103842, 42.80311702856833 ] } },
{ "type": "Feature", "properties": { "id": 4, "nom": "Artigues " }, "geometry": { "type": "Point", "coordinates": [ 2.033949455750346, 42.690242818505212 ] } },
{ "type": "Feature", "properties": { "id": 5, "nom": "Ascou " }, "geometry": { "type": "Point", "coordinates": [ 1.916398340278077, 42.71911456978421 ] } },
{ "type": "Feature", "properties": { "id": 6, "nom": "Aston " }, "geometry": { "type": "Point", "coordinates": [ 1.656968360418762, 42.697773073650268 ] } },
{ "type": "Feature", "properties": { "id": 7, "nom": "Aulos-Sinsat " }, "geometry": { "type": "Point", "coordinates": [ 1.66174186228058, 42.798521267341997 ] } },
{ "type": "Feature", "properties": { "id": 8, "nom": "Auzat " }, "geometry": { "type": "Point", "coordinates": [ 1.438270131237239, 42.697644754164159 ] } },
{ "type": "Feature", "properties": { "id": 9, "nom": "Axiat " }, "geometry": { "type": "Point", "coordinates": [ 1.757599811506512, 42.799615297545252 ] } },
{ "type": "Feature", "properties": { "id": 10, "nom": "Ax-les-Thermes " }, "geometry": { "type": "Point", "coordinates": [ 1.805302445305688, 42.684053763330922 ] } },
{ "type": "Feature", "properties": { "id": 11, "nom": "Bestiac " }, "geometry": { "type": "Point", "coordinates": [ 1.796712423800775, 42.783503327533182 ] } },
{ "type": "Feature", "properties": { "id": 12, "nom": "Bouan " }, "geometry": { "type": "Point", "coordinates": [ 1.644999792644434, 42.791580657406044 ] } },
{ "type": "Feature", "properties": { "id": 13, "nom": "Les Cabannes " }, "geometry": { "type": "Point", "coordinates": [ 1.691531117053246, 42.783768161103183 ] } },
{ "type": "Feature", "properties": { "id": 14, "nom": "Carcanières " }, "geometry": { "type": "Point", "coordinates": [ 2.125297081536945, 42.708770171052699 ] } },
{ "type": "Feature", "properties": { "id": 15, "nom": "Caussou " }, "geometry": { "type": "Point", "coordinates": [ 1.820950902934984, 42.774535493144214 ] } },
{ "type": "Feature", "properties": { "id": 16, "nom": "Caychax " }, "geometry": { "type": "Point", "coordinates": [ 1.729213673405301, 42.80760249484679 ] } },
{ "type": "Feature", "properties": { "id": 17, "nom": "Château-Verdun " }, "geometry": { "type": "Point", "coordinates": [ 1.677421751206342, 42.780579256670137 ] } },
{ "type": "Feature", "properties": { "id": 18, "nom": "Garanou " }, "geometry": { "type": "Point", "coordinates": [ 1.74645290140947, 42.76192934267273 ] } },
{ "type": "Feature", "properties": { "id": 19, "nom": "Gestiès " }, "geometry": { "type": "Point", "coordinates": [ 1.579493427301917, 42.715145009703377 ] } },
{ "type": "Feature", "properties": { "id": 20, "nom": "L'Hospitalet-près-l'Andorre " }, "geometry": { "type": "Point", "coordinates": [ 1.773897448553182, 42.594764426706789 ] } },
{ "type": "Feature", "properties": { "id": 21, "nom": "Ignaux " }, "geometry": { "type": "Point", "coordinates": [ 1.839643964454894, 42.741309348795639 ] } },
{ "type": "Feature", "properties": { "id": 22, "nom": "Illier-et-Laramade " }, "geometry": { "type": "Point", "coordinates": [ 1.542848809113476, 42.790853044615027 ] } },
{ "type": "Feature", "properties": { "id": 23, "nom": "Larcat " }, "geometry": { "type": "Point", "coordinates": [ 1.646808008948108, 42.770527739255854 ] } },
{ "type": "Feature", "properties": { "id": 24, "nom": "Larnat " }, "geometry": { "type": "Point", "coordinates": [ 1.630371374568446, 42.793550918023293 ] } },
{ "type": "Feature", "properties": { "id": 25, "nom": "Lassur " }, "geometry": { "type": "Point", "coordinates": [ 1.718092639917548, 42.741696243692537 ] } },
{ "type": "Feature", "properties": { "id": 26, "nom": "Lercoul " }, "geometry": { "type": "Point", "coordinates": [ 1.524416743836926, 42.710628001915978 ] } },
{ "type": "Feature", "properties": { "id": 27, "nom": "Lordat " }, "geometry": { "type": "Point", "coordinates": [ 1.779093911882946, 42.796299977561894 ] } },
{ "type": "Feature", "properties": { "id": 28, "nom": "Mérens-les-Vals " }, "geometry": { "type": "Point", "coordinates": [ 1.832963161817238, 42.632904304346184 ] } },
{ "type": "Feature", "properties": { "id": 29, "nom": "Mijanès " }, "geometry": { "type": "Point", "coordinates": [ 2.004186853727103, 42.707920153594486 ] } },
{ "type": "Feature", "properties": { "id": 30, "nom": "Montaillou " }, "geometry": { "type": "Point", "coordinates": [ 1.901698663983028, 42.783669477580901 ] } },
{ "type": "Feature", "properties": { "id": 31, "nom": "Orgeix " }, "geometry": { "type": "Point", "coordinates": [ 1.879570144873108, 42.675863137253515 ] } },
{ "type": "Feature", "properties": { "id": 32, "nom": "Orlu " }, "geometry": { "type": "Point", "coordinates": [ 1.947671357467895, 42.65838383377595 ] } },
{ "type": "Feature", "properties": { "id": 33, "nom": "Orus " }, "geometry": { "type": "Point", "coordinates": [ 1.514740069777976, 42.793447547599982 ] } },
{ "type": "Feature", "properties": { "id": 34, "nom": "Pech " }, "geometry": { "type": "Point", "coordinates": [ 1.690910508038135, 42.762896145703763 ] } },
{ "type": "Feature", "properties": { "id": 35, "nom": "Perles-et-Castelet " }, "geometry": { "type": "Point", "coordinates": [ 1.768421240567353, 42.714416946545825 ] } },
{ "type": "Feature", "properties": { "id": 36, "nom": "Le Pla " }, "geometry": { "type": "Point", "coordinates": [ 2.054590704184238, 42.688260582341528 ] } },
{ "type": "Feature", "properties": { "id": 37, "nom": "Prades " }, "geometry": { "type": "Point", "coordinates": [ 1.863100337104269, 42.787377093280242 ] } },
{ "type": "Feature", "properties": { "id": 38, "nom": "Le Puch " }, "geometry": { "type": "Point", "coordinates": [ 2.099279064039983, 42.721649505939595 ] } },
{ "type": "Feature", "properties": { "id": 39, "nom": "Quérigut " }, "geometry": { "type": "Point", "coordinates": [ 2.120037783623361, 42.688385792744768 ] } },
{ "type": "Feature", "properties": { "id": 40, "nom": "Rouze " }, "geometry": { "type": "Point", "coordinates": [ 2.075697161463463, 42.739620597388225 ] } },
{ "type": "Feature", "properties": { "id": 41, "nom": "Savignac-les-Ormeaux " }, "geometry": { "type": "Point", "coordinates": [ 1.773799305137861, 42.680496990469642 ] } },
{ "type": "Feature", "properties": { "id": 42, "nom": "Senconac " }, "geometry": { "type": "Point", "coordinates": [ 1.717952022529495, 42.809970127345053 ] } },
{ "type": "Feature", "properties": { "id": 43, "nom": "Siguer " }, "geometry": { "type": "Point", "coordinates": [ 1.553047025911405, 42.717694423018628 ] } },
{ "type": "Feature", "properties": { "id": 44, "nom": "Sorgeat " }, "geometry": { "type": "Point", "coordinates": [ 1.895497863310093, 42.744729658104404 ] } },
{ "type": "Feature", "properties": { "id": 45, "nom": "Tignac " }, "geometry": { "type": "Point", "coordinates": [ 1.799720704451824, 42.74755410958538 ] } },
{ "type": "Feature", "properties": { "id": 46, "nom": "Unac " }, "geometry": { "type": "Point", "coordinates": [ 1.781289655327693, 42.757105389475726 ] } },
{ "type": "Feature", "properties": { "id": 47, "nom": "Urs " }, "geometry": { "type": "Point", "coordinates": [ 1.736226701617025, 42.778397130165196 ] } },
{ "type": "Feature", "properties": { "id": 48, "nom": "Val-de-Sos " }, "geometry": { "type": "Point", "coordinates": [ 1.505247729217046, 42.775091207098136 ] } },
{ "type": "Feature", "properties": { "id": 49, "nom": "Vaychis " }, "geometry": { "type": "Point", "coordinates": [ 1.819659997999111, 42.74522731493898 ] } },
{ "type": "Feature", "properties": { "id": 50, "nom": "Vèbre " }, "geometry": { "type": "Point", "coordinates": [ 1.71973407219881, 42.767524744420328 ] } },
{ "type": "Feature", "properties": { "id": 51, "nom": "Verdun " }, "geometry": { "type": "Point", "coordinates": [ 1.688568533083933, 42.80393030649212 ] } },
{ "type": "Feature", "properties": { "id": 52, "nom": "Vernaux " }, "geometry": { "type": "Point", "coordinates": [ 1.791026521312803, 42.790640673106381 ] } }
]
}
